{
"type": "FeatureCollection",
"crs": { "type": "name", "properties": { "name": "urn:ogc:def:crs:OGC:1.3:CRS84" } },
"features": [
{ "type": "Feature", "properties": { "gid": 1, "code": "10", "place": "南环路与锦溪南路交叉路口电警", "longitude": 109.99733220500001, "latitude": 27.524307557, "description": null }, "geometry": { "type": "Point", "coordinates": [ 109.99733220500008, 27.524307557000043 ] } },
{ "type": "Feature", "properties": { "gid": 2, "code": "12", "place": "湖天南路与刘塘路交叉路口电警", "longitude": 109.983006006, "latitude": 27.5325409880001, "description": null }, "geometry": { "type": "Point", "coordinates": [ 109.98300600600004, 27.532540988000051 ] } },
{ "type": "Feature", "properties": { "gid": 3, "code": "14", "place": "西环路与怀西路交叉路口电警", "longitude": 109.921916497, "latitude": 27.547042316, "description": null }, "geometry": { "type": "Point", "coordinates": [ 109.92191649700004, 27.547042316000045 ] } },
{ "type": "Feature", "properties": { "gid": 4, "code": "16", "place": "湖天南路与南环路交叉路口电警", "longitude": 109.98304489, "latitude": 27.523008569000101, "description": null }, "geometry": { "type": "Point", "coordinates": [ 109.98304489000009, 27.523008569000069 ] } },
{ "type": "Feature", "properties": { "gid": 5, "code": "18", "place": "湖天南路与高堰路丁字路口电警", "longitude": 109.983057085, "latitude": 27.517882590000099, "description": null }, "geometry": { "type": "Point", "coordinates": [ 109.98305708500004, 27.517882590000056 ] } },
{ "type": "Feature", "properties": { "gid": 6, "code": "3", "place": "人民南路与鹤州路交叉路口卡口", "longitude": 109.963854121, "latitude": 27.552179547000001, "description": "3" }, "geometry": { "type": "Point", "coordinates": [ 109.96385412100005, 27.552179547000037 ] } },
{ "type": "Feature", "properties": { "gid": 7, "code": "43120006", "place": "湖天南路与刘塘路交叉路口西向电警", "longitude": 109.982977452, "latitude": 27.532557167, "description": null }, "geometry": { "type": "Point", "coordinates": [ 109.98297745200006, 27.53255716700005 ] } },
{ "type": "Feature", "properties": { "gid": 8, "code": "43120009", "place": "西环路与怀西路交叉路口电警", "longitude": 109.92193226099999, "latitude": 27.547073051999998, "description": null }, "geometry": { "type": "Point", "coordinates": [ 109.92193226100005, 27.54707305200003 ] } },
{ "type": "Feature", "properties": { "gid": 9, "code": "43120011", "place": "湖天南路与南环路交叉路口电警", "longitude": 109.98304364099999, "latitude": 27.523027687, "description": null }, "geometry": { "type": "Point", "coordinates": [ 109.98304364100005, 27.523027687000024 ] } },
{ "type": "Feature", "properties": { "gid": 10, "code": "43120012", "place": "湖天南路与高堰路丁字路口卡口", "longitude": 109.983057542, "latitude": 27.517908714000001, "description": null }, "geometry": { "type": "Point", "coordinates": [ 109.98305754200004, 27.517908714000043 ] } },
{ "type": "Feature", "properties": { "gid": 11, "code": "6", "place": "人民路与鹤州路交叉路口电警", "longitude": 109.963837207, "latitude": 27.552178781000102, "description": "3" }, "geometry": { "type": "Point", "coordinates": [ 109.96383720700004, 27.552178781000066 ] } },
{ "type": "Feature", "properties": { "gid": 12, "code": "600051036", "place": "天星中路与红星路交叉路口", "longitude": 109.970982251, "latitude": 27.541957568000001, "description": null }, "geometry": { "type": "Point", "coordinates": [ 109.97098225100007, 27.541957568000043 ] } },
{ "type": "Feature", "properties": { "gid": 13, "code": "665021886", "place": "正清路与红星路交叉路口", "longitude": 109.972867142, "latitude": 27.546926081, "description": null }, "geometry": { "type": "Point", "coordinates": [ 109.97286714200004, 27.546926081000038 ] } },
{ "type": "Feature", "properties": { "gid": 14, "code": "8", "place": "人民路与府星路交叉路口电警", "longitude": 109.961532897, "latitude": 27.551066681000101, "description": null }, "geometry": { "type": "Point", "coordinates": [ 109.96153289700004, 27.551066681000066 ] } },
{ "type": "Feature", "properties": { "gid": 15, "code": "9", "place": "湖天南路路段超速卡口", "longitude": 109.967187091, "latitude": 27.506399320000099, "description": "HTNDD-KK001IO" }, "geometry": { "type": "Point", "coordinates": [ 109.96718709100008, 27.506399320000071 ] } },
{ "type": "Feature", "properties": { "gid": 16, "code": "66506", "place": "顺天路与花溪路交叉路口电警", "longitude": 110.00326614399999, "latitude": 27.5530072500001, "description": "顺天路与花溪路交叉路口电警、宏宇新城、宏宇新城北向2位置的三个电警编号相同" }, "geometry": { "type": "Point", "coordinates": [ 110.00326614400007, 27.553007250000064 ] } },
{ "type": "Feature", "properties": { "gid": 17, "code": "43120013", "place": "湖天南路与高堰路丁字路口电警", "longitude": 109.983032557, "latitude": 27.5179087130001, "description": null }, "geometry": { "type": "Point", "coordinates": [ 109.98303255700006, 27.517908713000054 ] } },
{ "type": "Feature", "properties": { "gid": 18, "code": "15", "place": "西环路与怀西路交叉路口卡口", "longitude": 109.921926015, "latitude": 27.547058377, "description": null }, "geometry": { "type": "Point", "coordinates": [ 109.92192601500005, 27.547058377000042 ] } },
{ "type": "Feature", "properties": { "gid": 19, "code": "17", "place": "湖天南路与南环路交叉路口卡口", "longitude": 109.98304489, "latitude": 27.523008569000101, "description": null }, "geometry": { "type": "Point", "coordinates": [ 109.98304489000009, 27.523008569000069 ] } },
{ "type": "Feature", "properties": { "gid": 20, "code": "19", "place": "湖天南路与高堰路丁字路口卡口", "longitude": 109.98303091, "latitude": 27.517884376000001, "description": null }, "geometry": { "type": "Point", "coordinates": [ 109.98303091000008, 27.51788437600004 ] } }
]
}
